[
 {
   "Name": "Jamaica, Queens Community Fridges",
   "Hours": "Open 24/7!",
   "Address": "107-58 Sutphin Blvd",
   "Zip Code": 11435,
   "Instagram": "jamaicacommunityfridge",
   "Website": "",
   "Twitter": "",
   "Venmo": "JamaicaCommunityFridge",
   "Paypal": "DNewton39",
   "Cash App": "",
   "Other donation page": "",
   "Notes": ""
 },
 {
   "Name": "Jamaica, Queens Community Fridges",
   "Hours": "Open 24/7!",
   "Address": "92-15 149th St",
   "Zip Code": 11435,
   "Instagram": "jamaicacommunityfridge",
   "Website": "",
   "Twitter": "",
   "Venmo": "JamaicaCommunityFridge",
   "Paypal": "DNewton39",
   "Cash App": "",
   "Other donation page": "",
   "Notes": ""
 },
 {
   "Name": "Queens Village Community Fridge\n",
   "Hours": "24/7",
   "Address": "190-03 Hollis Ave",
   "Zip Code": 11423,
   "Instagram": "@jamaicacommunityfridge",
   "Website": "",
   "Twitter": "",
   "Venmo": "JamaicaCommunityFridge",
   "Paypal": "DNewton39",
   "Cash App": "",
   "Other donation page": "",
   "Notes": ""
 },
 {
   "Name": "Bushwick Community Fridge",
   "Hours": "24/7",
   "Address": "1643 Broadway, BK",
   "Zip Code": 11207,
   "Instagram": "@thebushwickfridge",
   "Website": "",
   "Twitter": "",
   "Venmo": "",
   "Paypal": "",
   "Cash App": "",
   "Other donation page": "",
   "Notes": ""
 },
 {
   "Name": "University City NYC",
   "Hours": "24/7",
   "Address": "234 Glenmore Avenue",
   "Zip Code": 11207,
   "Instagram": "@universecitynyc",
   "Website": "UniverseCityNYC",
   "Twitter": "UniverseCityNYC",
   "Venmo": "",
   "Paypal": "",
   "Cash App": "",
   "Other donation page": "Gofundme",
   "Notes": ""
 },
 {
   "Name": "Laurenton Community Fridge\n",
   "Hours": "24/7",
   "Address": "233rd and Merrick Blvd",
   "Zip Code": 11413,
   "Instagram": "@laureltoncommunnityfridge",
   "Website": "",
   "Twitter": "",
   "Venmo": "",
   "Paypal": "",
   "Cash App": "",
   "Other donation page": "Donation pg",
   "Notes": ""
 },
 {
   "Name": "QueensVillage Community Fridge",
   "Hours": "",
   "Address": "God's Gospel Cafe, 190-3 Hollis Ave",
   "Zip Code": 11423,
   "Instagram": "@qvcommunityfridge",
   "Website": "https://linktr.ee/qvcommunityfridge",
   "Twitter": "",
   "Venmo": "frankliniv",
   "Paypal": "",
   "Cash App": "",
   "Other donation page": "",
   "Notes": ""
 },
 {
   "Name": "Flatbush Friendly Fridge",
   "Hours": "24/7",
   "Address": "1110 Nostrand Ave",
   "Zip Code": 11225,
   "Instagram": "@flatbushfriendlyfridge",
   "Website": "",
   "Twitter": "",
   "Venmo": "",
   "Paypal": "",
   "Cash App": "",
   "Other donation page": "",
   "Notes": ""
 },
 {
   "Name": "The Community Fridge",
   "Hours": "",
   "Address": "466 Grand St",
   "Zip Code": 10002,
   "Instagram": "@les_communityfridge",
   "Website": "https://linktr.ee/lescommunityfridge",
   "Twitter": "",
   "Venmo": "",
   "Paypal": "",
   "Cash App": "",
   "Other donation page": "https://donorbox.org/supportthefridge",
   "Notes": ""
 },
 {
   "Name": "The Barrio Fridge",
   "Hours": "",
   "Address": "339 E 108th Street",
   "Zip Code": 10029,
   "Instagram": "@thebarriofridge",
   "Website": "https://www.thebarriofridge.com/",
   "Twitter": "",
   "Venmo": "",
   "Paypal": "TheBarrioFridge",
   "Cash App": "BarrioFridge",
   "Other donation page": "",
   "Notes": ""
 },
 {
   "Name": "The Harlem Community Fridge",
   "Hours": "",
   "Address": "352 West 116th Street",
   "Zip Code": 10026,
   "Instagram": "@theharlemcommunityfridge",
   "Website": "",
   "Twitter": "",
   "Venmo": "",
   "Paypal": "",
   "Cash App": "",
   "Other donation page": "",
   "Notes": ""
 },
 {
   "Name": "The Friendly Fridge Bronx",
   "Hours": "",
   "Address": "5977 Broadway",
   "Zip Code": 10471,
   "Instagram": "@thefriendlyfridgebx",
   "Website": "",
   "Twitter": "",
   "Venmo": "",
   "Paypal": "",
   "Cash App": "",
   "Other donation page": "https://www.gofundme.com/f/the-friendly-fridge-bx",
   "Notes": ""
 },
 {
   "Name": "Bergen Community Fridge",
   "Hours": "24/7",
   "Address": "1144 Bergen St",
   "Zip Code": 11216,
   "Instagram": "@bergencommunityfridge",
   "Website": "",
   "Twitter": "",
   "Venmo": "",
   "Paypal": "",
   "Cash App": "",
   "Other donation page": "",
   "Notes": ""
 },
 {
   "Name": "Community Fridge (Crown Heights)",
   "Hours": "",
   "Address": "711 Franklin Ave",
   "Zip Code": 11238,
   "Instagram": "",
   "Website": "",
   "Twitter": "",
   "Venmo": "",
   "Paypal": "",
   "Cash App": "",
   "Other donation page": "",
   "Notes": "\"entrance is located on Park Place behind the building!\""
 }
]